---
- slug: olsztyn
  name: Olsztyn
  type: town
  voivodeship: warminsko_mazurskie
  lat: 53.78146
  lon: 20.47801
- slug: jonkowo
  name: Jonkowo
  type: town
  voivodeship: warminsko_mazurskie
  wiki: https://pl.wikipedia.org/wiki/Jonkowo_(gmina)
  lat: 53.82789
  lon: 20.31098
- slug: lukta
  name: Łukta
  type: town
  voivodeship: warminsko_mazurskie
  lat: 53.80337
  lon: 20.08439
- slug: morag
  name: Morąg
  type: town
  voivodeship: warminsko_mazurskie
  lat: 53.91332
  lon: 19.92440
- slug: milomlyn
  name: Miłomłyn
  type: town
  voivodeship: warminsko_mazurskie
  lat: 53.76472
  lon: 19.83205
- slug: zalewo
  name: Zalewo
  type: town
  voivodeship: warminsko_mazurskie
  lat: 53.84461
  lon: 19.60751
- slug: wieliczki
  name: Wieliczki
  type: town
  voivodeship: warminsko_mazurskie
  lat: 53.98403
  lon: 22.56078
- slug: olecko
  name: Olecko
  type: town
  voivodeship: warminsko_mazurskie
  lat: 54.03457
  lon: 22.49606
- slug: elk
  name: Ełk
  type: town
  voivodeship: warminsko_mazurskie
  lat: 53.82708
  lon: 22.35942
- slug: stare_juchy
  name: Stare Juchy
  type: town
  voivodeship: warminsko_mazurskie
  lat: 53.92151
  lon: 22.17059
- slug: wydminy
  name: Wydminy
  type: town
  voivodeship: warminsko_mazurskie
  lat: 53.98030
  lon: 22.03103
- slug: gizycko
  name: Giżycko
  type: town
  voivodeship: warminsko_mazurskie
  lat: 54.03568
  lon: 21.77182
- slug: ryn
  name: Ryn
  type: town
  voivodeship: warminsko_mazurskie
  lat: 53.93838
  lon: 21.54403
- slug: ketrzyn
  name: Kętrzyn
  type: town
  voivodeship: warminsko_mazurskie
  lat: 54.07558
  lon: 21.37666
- slug: korsze
  name: Korsze
  type: town
  voivodeship: warminsko_mazurskie
  lat: 54.17206
  lon: 21.13702
- slug: bisztynek
  name: Bisztynek
  type: town
  voivodeship: warminsko_mazurskie
  lat: 54.08706
  lon: 20.90545
- slug: kolno
  name: Kolno
  type: town
  voivodeship: warminsko_mazurskie
  lat: 53.40982
  lon: 21.92906
- slug: biskupiec_olsztynski
  name: Biskupiec (powiat olsztyński)
  type: town
  voivodeship: warminsko_mazurskie
  lat: 53.86776
  lon: 20.95557
- slug: barczewo
  name: Barczewo
  type: town
  voivodeship: warminsko_mazurskie
  lat: 53.83134
  lon: 20.69276
- slug: ilawa
  name: Iława
  type: town
  voivodeship: warminsko_mazurskie
  lat: 53.59707
  lon: 19.56374
- slug: biskupiec_nowomiejski
  name: Biskupiec (powiat nowomiejski)
  type: town
  voivodeship: warminsko_mazurskie
  lat: 53.50038
  lon: 19.34796
