---
- slug: boguszow_gorce
  name: Boguszów Gorce
  type: town
  voivodeship: dolnoslaskie
  lat: 50.75659
  lon: 16.20678
- slug: brzeg_dolny
  name: Brzeg Dolny
  type: town
  voivodeship: dolnoslaskie
  lat: 51.27176
  lon: 16.70881
- slug: bystrzyca_klodzka
  name: Bystrzyca Kłodzka
  type: town
  voivodeship: dolnoslaskie
  lat: 50.29720
  lon: 16.65457
- slug: cieplowody
  name: Ciepłowody
  type: town
  voivodeship: dolnoslaskie
  lat: 50.67391
  lon: 16.90656
- slug: czarny_bor
  name: Czarny Bór
  type: town
  voivodeship: dolnoslaskie
  lat: 50.77193
  lon: 16.13306
- slug: duszniki_zdroj
  name: Duszniki Zdrój
  type: town
  voivodeship: dolnoslaskie
  lat: 50.40323
  lon: 16.39106
- slug: dzierzoniow
  name: Dzierżoniow
  type: town
  voivodeship: dolnoslaskie
  lat: 50.72805
  lon: 16.64907
- slug: gluszyca
  name: Głuszyca
  type: town
  voivodeship: dolnoslaskie
  lat: 50.68653
  lon: 16.37081
- slug: gryfow_slaski
  name: Gryfów Śląski
  type: town
  voivodeship: dolnoslaskie
  lat: 51.03002
  lon: 15.41671
- slug: janowice_wielkie
  name: Janowice Wielkie
  type: town
  voivodeship: dolnoslaskie
  lat: 50.87690
  lon: 15.91882
- slug: jelenia_gora
  name: Jelenia Góra
  type: town
  voivodeship: dolnoslaskie
  lat: 50.90278
  lon: 15.73532
- slug: jezow_sudecki
  name: Jeżów Sudecki
  type: town
  voivodeship: dolnoslaskie
  lat: 50.93157
  lon: 15.74442
- slug: kamienna_gora
  name: Kamienna Góra
  type: town
  voivodeship: dolnoslaskie
  lat: 50.78246
  lon: 16.03315
- slug: karpacz
  name: Karpacz
  type: town
  voivodeship: dolnoslaskie
  lat: 50.77910
  lon: 15.76210
- slug: klodzko
  name: Kłodzko
  type: town
  voivodeship: dolnoslaskie
  lat: 50.43998
  lon: 16.65422
- slug: kondratowice
  name: Kondratowice
  type: town
  voivodeship: dolnoslaskie
  lat: 50.77117
  lon: 16.93300
- slug: kostomloty
  name: Kostomłoty
  type: town
  voivodeship: dolnoslaskie
  lat: 51.04553
  lon: 16.61197
- slug: kowary
  name: Kowary
  type: town
  voivodeship: dolnoslaskie
  lat: 50.79234
  lon: 15.83351
- slug: kudowa_zdroj
  name: Kudowa Zdrój
  type: town
  voivodeship: dolnoslaskie
  lat: 50.44042
  lon: 16.24326
- slug: lagiewniki
  name: Łagiewniki
  type: town
  voivodeship: dolnoslaskie
  lat: 50.79027
  lon: 16.84262
- slug: lesna
  name: Leśna
  type: town
  voivodeship: dolnoslaskie
  lat: 51.02398
  lon: 15.26385
- slug: luban
  name: Lubań
  type: town
  voivodeship: dolnoslaskie
  lat: 51.12008
  lon: 15.29123
- slug: lubomierz
  name: Lubomierz
  type: town
  voivodeship: dolnoslaskie
  lat: 51.01264
  lon: 15.50958
- slug: marcinowice
  name: Marcinowice
  type: town
  voivodeship: dolnoslaskie
  lat: 50.87896
  lon: 16.58109
- slug: marciszow
  name: Marciszów
  type: town
  voivodeship: dolnoslaskie
  lat: 50.85003
  lon: 16.01023
- slug: miedzylesie
  name: Międzylesie
  type: town
  voivodeship: dolnoslaskie
  lat: 50.14904
  lon: 16.66409
- slug: miekinia
  name: Miękinia
  type: town
  voivodeship: dolnoslaskie
  lat: 51.18749
  lon: 16.73705
- slug: mieroszow
  name: Mieroszów
  type: town
  voivodeship: dolnoslaskie
  lat: 50.66531
  lon: 16.18602
- slug: mietkow
  name: Mietków
  type: town
  voivodeship: dolnoslaskie
  lat: 50.97493
  lon: 16.64778
- slug: milicz
  name: Milicz
  type: town
  voivodeship: dolnoslaskie
  lat: 51.52975
  lon: 17.27538
- slug: mirsk
  name: Mirsk
  type: town
  voivodeship: dolnoslaskie
  lat: 50.96974
  lon: 15.38487
- slug: myslakowice
  name: Mysłakowice
  type: town
  voivodeship: dolnoslaskie
  lat: 50.83670
  lon: 15.78656
- slug: niemcza
  name: Niemcza
  type: town
  voivodeship: dolnoslaskie
  lat: 50.71588
  lon: 16.83747
- slug: nowa_ruda
  name: Nowa Ruda
  type: town
  voivodeship: dolnoslaskie
  lat: 50.58146
  lon: 16.50256
- slug: oborniki_slaskie
  name: Oborniki Śląskie
  type: town
  voivodeship: dolnoslaskie
  lat: 51.30043
  lon: 16.91437
- slug: olszyna
  name: Olszyna
  type: town
  voivodeship: dolnoslaskie
  lat: 51.06628
  lon: 15.37904
- slug: piechowice
  name: Piechowice
  type: town
  voivodeship: dolnoslaskie
  lat: 50.85014
  lon: 15.60340
- slug: pielgrzymka
  name: Pielgrzymka
  type: town
  voivodeship: dolnoslaskie
  lat: 51.11728
  lon: 15.81403
- slug: pieszyce
  name: Pieszyce
  type: town
  voivodeship: dolnoslaskie
  lat: 50.71034
  lon: 16.57895
- slug: platerowka
  name: Platerówka
  type: town
  voivodeship: dolnoslaskie
  lat: 51.05906
  lon: 15.17304
- slug: podgorzyn
  name: Podgórzyn
  type: town
  voivodeship: dolnoslaskie
  lat: 50.83377
  lon: 15.68047
- slug: prusice
  name: Prusice
  type: town
  voivodeship: dolnoslaskie
  lat: 51.372510
  lon: 16.960029
- slug: radkow
  name: Radków
  type: town
  voivodeship: dolnoslaskie
  lat: 50.504214
  lon: 16.401683
- slug: siekierczyn
  name: Siekierczyn
  type: town
  voivodeship: dolnoslaskie
  lat: 51.12439
  lon: 15.18978
- slug: sroda_slaska
  name: Środa Śląska
  type: town
  voivodeship: dolnoslaskie
  lat: 51.16430
  lon: 16.59174
- slug: stara_kamienica
  name: Stara Kamienica
  type: town
  voivodeship: dolnoslaskie
  lat: 50.91691
  lon: 15.57241
- slug: stoszowice
  name: Stoszowice
  type: town
  voivodeship: dolnoslaskie
  lat: 50.59949
  lon: 16.73353
- slug: stronie_slaskie
  name: Stronie Śląskie
  type: town
  voivodeship: dolnoslaskie
  lat: 50.29276
  lon: 16.87378
- slug: strzelin
  name: Strzelin
  type: town
  voivodeship: dolnoslaskie
  lat: 50.78143
  lon: 17.07110
- slug: swieradow_zdroj
  name: Świeradów Zdrój
  type: town
  voivodeship: dolnoslaskie
  lat: 50.90955
  lon: 15.34127
- slug: swierzawa
  name: Świerzawa
  type: town
  voivodeship: dolnoslaskie
  lat: 51.01378
  lon: 15.89410
- slug: szklarska_poreba
  name: Szklarska Poręba
  type: town
  voivodeship: dolnoslaskie
  lat: 50.82532
  lon: 15.52520
- slug: walbrzych
  name: Wałbrzych
  type: town
  voivodeship: dolnoslaskie
  lat: 50.78322
  lon: 16.28772
- slug: walim
  name: Walim
  type: town
  voivodeship: dolnoslaskie
  lat: 50.69778
  lon: 16.44102
- slug: wlen
  name: Wleń
  type: town
  voivodeship: dolnoslaskie
  lat: 51.01631
  lon: 15.67421
- slug: wolow
  name: Wołów
  type: town
  voivodeship: dolnoslaskie
  lat: 51.33594
  lon: 16.64744
- slug: wroclaw
  name: Wrocław
  type: town
  voivodeship: dolnoslaskie
  lat: 51.11087
  lon: 17.03230
- slug: zabkowice_slaskie
  name: Ząbkowice Śląskie
  type: town
  voivodeship: dolnoslaskie
  lat: 50.58914
  lon: 16.81258
- slug: zarow
  name: Żarow
  type: town
  voivodeship: dolnoslaskie
  lat: 50.94071
  lon: 16.49372
- slug: ziebice
  name: Ziębice
  type: town
  voivodeship: dolnoslaskie
  lat: 50.60028
  lon: 17.04111
- slug: zmigrod
  name: Żmigród
  type: town
  voivodeship: dolnoslaskie
  lat: 51.47055
  lon: 16.90716
- slug: szczytna
  name: Szczytna
  type: town
  voivodeship: dolnoslaskie
  lat: 50.41264
  lon: 16.44728
- slug: lwowek_slaski
  name: Lwówek Śląski
  type: town
  voivodeship: dolnoslaskie
  lat: 51.11060
  lon: 15.58640
- slug: nowogrodziec
  name: Nowogrodziec
  type: town
  voivodeship: dolnoslaskie
  lat: 51.19642
  lon: 15.39877
- slug: wegliniec
  name: Węgliniec
  type: town
  voivodeship: dolnoslaskie
  lat: 51.28792
  lon: 15.22583
- slug: piensk
  name: Pieńsk
  type: town
  voivodeship: dolnoslaskie
  lat: 51.24802
  lon: 15.04670
- slug: zgorzelec
  name: Zgorzelec
  type: town
  voivodeship: dolnoslaskie
  lat: 51.15444
  lon: 15.01228
- slug: sulikow
  name: Sulików
  type: town
  voivodeship: dolnoslaskie
  lat: 51.07869
  lon: 15.06918
- slug: bogatynia
  name: Bogatynia
  type: town
  voivodeship: dolnoslaskie
  lat: 50.90874
  lon: 14.95915
- slug: zlotoryja
  name: Złotoryja
  type: town
  voivodeship: dolnoslaskie
  lat: 51.12493
  lon: 15.91015
- slug: niechlow
  name: Niechlów
  type: town
  voivodeship: dolnoslaskie
  lat: 51.68796
  lon: 16.36471
- slug: gora
  name: Góra
  type: town
  voivodeship: dolnoslaskie
  lat: 51.668309
  lon: 16.536114
- slug: cieszkow
  name: Cieszków
  type: town
  voivodeship: dolnoslaskie
  lat: 51.63097
  lon: 17.35990
- slug: jedlina_zdroj
  name: Jedlina Zdrój
  type: town
  voivodeship: dolnoslaskie
  lat: 50.71923
  lon: 16.34744
- slug: kamieniec_zabkowicki
  name: Kamieniec Ząbkowicki
  type: town
  voivodeship: dolnoslaskie
  lat: 50.52592
  lon: 16.87959
- slug: bardo
  name: Bardo
  type: town
  voivodeship: dolnoslaskie
  lat: 50.50690
  lon: 16.74066
- slug: winsko
  name: Wińsko
  type: town
  voivodeship: dolnoslaskie
  lat: 51.46992
  lon: 16.61453
- slug: scinawa
  name: Ścinawa
  type: town
  voivodeship: dolnoslaskie
  lat: 51.41497
  lon: 16.41969
- slug: rudna
  name: Rudna
  type: town
  voivodeship: dolnoslaskie
  lat: 51.50973
  lon: 16.26331
- slug: grebocice
  name: Grębocice
  type: town
  voivodeship: dolnoslaskie
  lat: 51.59907
  lon: 16.16838
- slug: glogow
  name: Głogów
  type: town
  voivodeship: dolnoslaskie
  lat: 51.66119
  lon: 16.08495
- slug: jaworzyna_slaska
  name: Jaworzyna Śląska
  type: town
  voivodeship: dolnoslaskie
  lat: 50.91215
  lon: 16.43034
- slug: pilawa_gorna
  name: Piława Górna
  type: town
  voivodeship: dolnoslaskie
  lat: 50.68289
  lon: 16.73641
- slug: szczawno_zdroj
  name: Szczawno Zdrój
  type: town
  voivodeship: dolnoslaskie
  lat: 50.80340
  lon: 16.25261
- slug: stare_bogaczowice
  name: Stare Bogaczowice
  type: town
  voivodeship: dolnoslaskie
  lat: 50.84710
  lon: 16.19828
- slug: lubawka
  name: Lubawka
  type: town
  voivodeship: dolnoslaskie
  lat: 50.70772
  lon: 15.99581
- slug: sieroszowice
  name: Sieroszowice
  type: town
  voivodeship: dolnoslaskie
  lat: 51.53092
  lon: 15.94823
- slug: swidnica
  name: Świdnica
  type: town
  voivodeship: dolnoslaskie
  lat: 50.84226
  lon: 16.48953
- slug: kotla
  name: Kotla
  type: town
  voivodeship: dolnoslaskie
  lat: 51.74308
  lon: 16.04203
- slug: bielawa
  name: Bielawa
  type: town
  voivodeship: dolnoslaskie
  lat: 50.68340
  lon: 16.61109
- slug: trzebnica
  name: Trzebnica
  type: town
  voivodeship: dolnoslaskie
  lat: 51.30973105623622
  lon: 17.063974652907703
- slug: przeworno
  name: Przeworno
  type: town
  voivodeship: dolnoslaskie
  lat: 50.686808629093186
  lon: 17.16055943872868
- slug: marcinowice
  name: Marcinowice
  type: town
  voivodeship: dolnoslaskie
  lat: 50.87827
  lon: 16.57968
