---
- slug: wieruszow
  name: Wieruszów
  type: town
  voivodeship: lodzkie
  lat: 51.29398
  lon: 18.15787
- slug: galewice
  name: Galewice
  type: town
  voivodeship: lodzkie
  lat: 51.34387
  lon: 18.25315
- slug: klonowa
  name: Klonowa
  type: town
  voivodeship: lodzkie
  lat: 51.41833
  lon: 18.41880
- slug: braszewice
  name: Brąszewice
  type: town
  voivodeship: lodzkie
  lat: 51.49780
  lon: 18.44901
- slug: brzeznio
  name: Brzeźnio
  type: town
  voivodeship: lodzkie
  lat: 51.49417
  lon: 18.62325
- slug: sieradz
  name: Sieradz
  type: town
  voivodeship: lodzkie
  lat: 51.59442
  lon: 18.73019

- slug: zdunska_wola
  name: Zduńska Wola
  type: town
  voivodeship: lodzkie
  lat: 51.60220
  lon: 18.93396
- slug: zapolice
  name: Zapolice
  type: town
  voivodeship: lodzkie
  lat: 51.54010
  lon: 18.88211
- slug: sedziejowice
  name: Sędziejowice
  type: town
  voivodeship: lodzkie
  lat: 51.50870
  lon: 19.02305
- slug: buczek
  name: Buczek
  type: town
  voivodeship: lodzkie
  lat: 51.50144
  lon: 19.16381
- slug: lask
  name: Łask
  type: town
  voivodeship: lodzkie
  lat: 51.59015
  lon: 19.13514
- slug: dobron
  name: Dobroń
  type: town
  voivodeship: lodzkie
  lat: 51.63311
  lon: 19.24432
- slug: dlutow
  name: Dłutów
  type: town
  voivodeship: lodzkie
  lat: 51.55622
  lon: 19.39401
- slug: tuszyn
  name: Tuszyn
  type: town
  voivodeship: lodzkie
  lat: 51.60263
  lon: 19.54490
- slug: rzgow
  name: Rzgów
  type: town
  voivodeship: lodzkie
  lat: 51.66251
  lon: 19.48980
- slug: brojce
  name: Brójce
  type: town
  voivodeship: lodzkie
  lat: 51.66623
  lon: 19.63760
- slug: lodz
  name: Łódź
  type: town
  voivodeship: lodzkie
  lat: 51.76929
  lon: 19.46370
- slug: blaszki
  name: Błaszki
  type: town
  voivodeship: lodzkie
  lat: 51.650433276654674
  lon: 18.434561839894577
- slug: wroblew
  name: Wróblew
  type: town
  voivodeship: lodzkie
  lat: 51.61176941666714
  lon: 18.615909519593988
- slug: pabianice
  name: Pabianice
  type: town
  voivodeship: lodzkie
  lat: 51.66494069654942
  lon: 19.3440089699623
- slug: inowlodz
  name: Inowłódź
  type: town
  voivodeship: lodzkie
  lat: 51.525110267655535
  lon: 20.2229786598911
- slug: tomaszow_mazowiecki
  name: Tomaszów Mazowiecki
  type: town
  voivodeship: lodzkie
  lat: 51.53120882536541
  lon: 20.007804254568995
- slug: lubochnia
  name: Lubochnia
  type: town
  voivodeship: lodzkie
  lat: 51.608140938176014
  lon: 20.05223916337484
- slug: lubochnia
  name: Lubochnia
  type: town
  voivodeship: lodzkie
  lat: 51.608140938176014
  lon: 20.05223916337484
- slug: ujazd
  name: Ujazd
  type: town
  voivodeship: lodzkie
  lat: 51.59996912067075
  lon: 19.920750315465586
- slug: andrespol
  name: Andrespol
  type: town
  voivodeship: lodzkie
  lat: 51.72539154468989
  lon: 19.63878412911279
- slug: koluszki
  name: Koluszki
  type: town
  voivodeship: lodzkie
  lat: 51.7386547507733
  lon: 19.81522028986645
- slug: rokociny
  name: Rokociny
  type: town
  voivodeship: lodzkie
  lat: 51.649711244688085
  lon: 19.802401893436087
- slug: bedkow
  name: Będków
  type: town
  voivodeship: lodzkie
  lat: 51.58763433514612
  lon: 19.74428742550842
- slug: czarnocin
  name: Czarnocin
  type: town
  voivodeship: lodzkie
  lat: 51.59119446078183
  lon: 19.682312051594295
- slug: kutno
  name: Kutno
  type: town
  voivodeship: lodzkie
  lat: 52.229955702816234
  lon: 19.36031562112231
- slug: strzelce
  name: Strzelce
  type: town
  voivodeship: lodzkie
  lat: 52.31869137816863
  lon: 19.40872017947496
