---
- slug: olsztyn
  name: Olsztyn
  type: town
  voivodeship: warminsko_mazurskie
  lat: 53.78146
  lon: 20.47801
- slug: jonkowo
  name: Jonkowo
  type: town
  voivodeship: warminsko_mazurskie
  wiki: https://pl.wikipedia.org/wiki/Jonkowo_(gmina)
  lat: 53.82789
  lon: 20.31098
- slug: lukta
  name: Łukta
  type: town
  voivodeship: warminsko_mazurskie
  lat: 53.80337
  lon: 20.08439
- slug: morag
  name: Morąg
  type: town
  voivodeship: warminsko_mazurskie
  lat: 53.91332
  lon: 19.92440
- slug: milomlyn
  name: Miłomłyn
  type: town
  voivodeship: warminsko_mazurskie
  lat: 53.76472
  lon: 19.83205
- slug: zalewo
  name: Zalewo
  type: town
  voivodeship: warminsko_mazurskie
  lat: 53.84461
  lon: 19.60751
- slug: wieliczki
  name: Wieliczki
  type: town
  voivodeship: warminsko_mazurskie
  lat: 53.98403
  lon: 22.56078
- slug: olecko
  name: Olecko
  type: town
  voivodeship: warminsko_mazurskie
  lat: 54.03457
  lon: 22.49606
- slug: elk
  name: Ełk
  type: town
  voivodeship: warminsko_mazurskie
  lat: 53.82708
  lon: 22.35942
- slug: stare_juchy
  name: Stare Juchy
  type: town
  voivodeship: warminsko_mazurskie
  lat: 53.92151
  lon: 22.17059
- slug: wydminy
  name: Wydminy
  type: town
  voivodeship: warminsko_mazurskie
  lat: 53.98030
  lon: 22.03103
- slug: gizycko
  name: Giżycko
  type: town
  voivodeship: warminsko_mazurskie
  lat: 54.03568
  lon: 21.77182
- slug: ryn
  name: Ryn
  type: town
  voivodeship: warminsko_mazurskie
  lat: 53.93838
  lon: 21.54403
- slug: ketrzyn
  name: Kętrzyn
  type: town
  voivodeship: warminsko_mazurskie
  lat: 54.07558
  lon: 21.37666
- slug: korsze
  name: Korsze
  type: town
  voivodeship: warminsko_mazurskie
  lat: 54.17206
  lon: 21.13702
- slug: bisztynek
  name: Bisztynek
  type: town
  voivodeship: warminsko_mazurskie
  lat: 54.08706
  lon: 20.90545
- slug: kolno
  name: Kolno
  type: town
  voivodeship: warminsko_mazurskie
  lat: 53.40982
  lon: 21.92906
- slug: biskupiec_olsztynski
  name: Biskupiec (powiat olsztyński)
  type: town
  voivodeship: warminsko_mazurskie
  lat: 53.86776
  lon: 20.95557
- slug: barczewo
  name: Barczewo
  type: town
  voivodeship: warminsko_mazurskie
  lat: 53.83134
  lon: 20.69276
- slug: ilawa
  name: Iława
  type: town
  voivodeship: warminsko_mazurskie
  lat: 53.59707
  lon: 19.56374
- slug: biskupiec_nowomiejski
  name: Biskupiec (powiat nowomiejski)
  type: town
  voivodeship: warminsko_mazurskie
  lat: 53.50038
  lon: 19.34796
- slug: ostroda
  name: Ostróda
  type: town
  voivodeship: warminsko_mazurskie
  lat: 53.70016
  lon: 19.95924
- slug: lidzbark
  name: Lidzbark
  type: town
  voivodeship: warminsko_mazurskie
  lat: 53.26274
  lon: 19.81934
- slug: rybno
  name: Rybno
  type: town
  voivodeship: warminsko_mazurskie
  lat: 53.38266
  lon: 19.93031
- slug: lubawa
  name: Lubawa
  type: town
  voivodeship: warminsko_mazurskie
  lat: 53.50402
  lon: 19.74990
- slug: dabrowno
  name: Dąbrówno
  type: town
  voivodeship: warminsko_mazurskie
  lat: 53.43305
  lon: 20.03511
- slug: grunwald
  name: Grunwald
  type: town
  voivodeship: warminsko_mazurskie
  lat: 53.48508
  lon: 20.09116
- slug: markusy
  name: Markusy
  type: town
  voivodeship: warminsko_mazurskie
  lat: 54.04784
  lon: 19.38593
- slug: elblag
  name: Elbląg
  type: town
  voivodeship: warminsko_mazurskie
  lat: 54.15152
  lon: 19.41512
- slug: wegorzewo
  name: Węgorzewo
  type: town
  voivodeship: warminsko_mazurskie
  lat: 54.21248
  lon: 21.73779
- slug: srokowo
  name: Srokowo
  type: town
  voivodeship: warminsko_mazurskie
  lat: 54.21399
  lon: 21.52322
- slug: barciany
  name: Barciany
  type: town
  voivodeship: warminsko_mazurskie
  lat: 54.22001
  lon: 21.35087
- slug: sepopol
  name: Sępopol
  type: town
  voivodeship: warminsko_mazurskie
  lat: 54.26535
  lon: 21.00840
- slug: bartoszyce
  name: Bartoszyce
  type: town
  voivodeship: warminsko_mazurskie
  lat: 54.25212
  lon: 20.81443
- slug: reszel
  name: Reszel
  type: town
  voivodeship: warminsko_mazurskie
  lat: 54.04954
  lon: 21.14453
- slug: bisztynek
  name: Bisztynek
  type: town
  voivodeship: warminsko_mazurskie
  lat: 54.08621
  lon: 20.90232
- slug: stare_juchy
  name: Stare Juchy
  type: town
  voivodeship: warminsko_mazurskie
  lat: 53.92135
  lon: 22.17313
- slug: milki
  name: Miłki
  type: town
  voivodeship: warminsko_mazurskie
  lat: 53.94187
  lon: 21.87443
- slug: kisielice
  name: Kisielice
  type: town
  voivodeship: warminsko_mazurskie
  lat: 53.60700
  lon: 19.26604
- slug: susz
  name: Susz
  type: town
  voivodeship: warminsko_mazurskie
  lat: 53.71848
  lon: 19.33694
- slug: dobre_miasto
  name: Dobre Miasto
  type: town
  voivodeship: warminsko_mazurskie
  lat: 53.98618
  lon: 20.39651
- slug: dywity
  name: Dywity
  type: town
  voivodeship: warminsko_mazurskie
  lat: 53.83728
  lon: 20.47716
- slug: jeziorany
  name: Jeziorany
  type: town
  voivodeship: warminsko_mazurskie
  lat: 53.97461
  lon: 20.74650
- slug: paslek
  name: Pasłęk
  type: town
  voivodeship: warminsko_mazurskie
  lat: 54.06346
  lon: 19.65610
- slug: godkowo
  name: Godkowo
  type: town
  voivodeship: warminsko_mazurskie
  lat: 54.07908
  lon: 19.90450
- slug: milakowo
  name: Miłakowo
  type: town
  voivodeship: warminsko_mazurskie
  lat: 54.00913
  lon: 20.07067
- slug: lubomino
  name: Lubomino
  type: town
  voivodeship: warminsko_mazurskie
  lat: 54.06477
  lon: 20.23975
- slug: swiatki
  name: Świątki
  type: town
  voivodeship: warminsko_mazurskie
  lat: 53.92632
  lon: 20.24284
- slug: kurzetnik
  name: Kurzętnik
  type: town
  voivodeship: warminsko_mazurskie
  lat: 53.40457410010667
  lon: 19.570145640232223
- slug: nowe_miasto_lubawskie
  name: Nowe Miasto Lubawskie
  type: town
  voivodeship: warminsko_mazurskie
  lat: 53.42667331818058
  lon: 19.58696845342407
- slug: gorowo_ilawieckie
  name: Górowo Iławieckie
  type: town
  voivodeship: warminsko_mazurskie
  lat: 54.286116325970234
  lon: 20.488650231848474
- slug: lidzbark_warminski
  name: Lidzbark Warmiński
  type: town
  voivodeship: warminsko_mazurskie
  lat: 54.124744236096646
  lon: 20.580701346132617
- slug: kiwity
  name: Kiwity
  type: town
  voivodeship: warminsko_mazurskie
  lat: 54.10021949972806
  lon: 20.7710127426298
- slug: gietrzwald
  name: Gietrzwałd
  type: town
  voivodeship: warminsko_mazurskie
  lat: 53.744148407487096
  lon: 20.238075294468654
